<?xml version="1.0" encoding="UTF-8"?>
<kml xmlns="http://www.opengis.net/kml/2.2"
	xmlns:gx="http://www.google.com/kml/ext/2.2">
  <Document>
    <name>E-USGS</name>
    <Snippet>Created Tue Aug 17 13:26:11 2010</Snippet>
<!-- Normal waypoint style -->
    <Style id="waypoint_n">
      <IconStyle>
        <Icon>
          <href>http://maps.google.com/mapfiles/kml/pal4/icon61.png</href>
        </Icon>
      </IconStyle>
    </Style>
<!-- Highlighted waypoint style -->
    <Style id="waypoint_h">
      <IconStyle>
        <scale>1.2</scale>
        <Icon>
          <href>http://maps.google.com/mapfiles/kml/pal4/icon61.png</href>
        </Icon>
      </IconStyle>
    </Style>
    <StyleMap id="waypoint">
      <Pair>
        <key>normal</key>
        <styleUrl>#waypoint_n</styleUrl>
      </Pair>
      <Pair>
        <key>highlight</key>
        <styleUrl>#waypoint_h</styleUrl>
      </Pair>
    </StyleMap>
      <Placemark>
        <name>BBSR</name>
        <description>Bermuda Biological Station for Research, St. Georges, Bermuda (BBSR.)</description>
        <styleUrl>#waypoint</styleUrl>
        <Point>
          <coordinates>-64.696200,32.371200,-25.000000</coordinates>
        </Point>
      </Placemark>
      <Placemark>
        <name>DWPF</name>
        <description>Disney Wilderness Preserve, Florida, USA (DWPF.)</description>
        <styleUrl>#waypoint</styleUrl>
        <Point>
          <coordinates>-81.432800,28.110300,-142.000000</coordinates>
        </Point>
      </Placemark>
      <Placemark>
        <name>HKT</name>
        <description>Hockley, Texas, USA (HKT.)</description>
        <styleUrl>#waypoint</styleUrl>
        <Point>
          <coordinates>-95.833300,29.950000,-415.000000</coordinates>
        </Point>
      </Placemark>
      <Placemark>
        <name>SDV</name>
        <description>Santo Domingo, Venezuela (SDV.)</description>
        <styleUrl>#waypoint</styleUrl>
        <Point>
          <coordinates>-70.633300,8.886100,1580.000000</coordinates>
        </Point>
      </Placemark>
      <Placemark>
        <name>SJG</name>
        <description>San Juan, Puerto Rico, USA (SJG.)</description>
        <styleUrl>#waypoint</styleUrl>
        <Point>
          <coordinates>-66.150000,18.111700,457.000000</coordinates>
        </Point>
      </Placemark>
      <Placemark>
        <name>TEIG</name>
        <description>Tepich, Yucatan, Mexico (TEIG.)</description>
        <styleUrl>#waypoint</styleUrl>
        <Point>
          <coordinates>-88.276400,20.226300,69.000000</coordinates>
        </Point>
      </Placemark>
      <Placemark>
        <name>BBGH</name>
        <description>Gun Hill, Barbados (BBGH.)</description>
        <styleUrl>#waypoint</styleUrl>
        <Point>
          <coordinates>-59.558800,13.143400,180.000000</coordinates>
        </Point>
      </Placemark>
      <Placemark>
        <name>BCIP</name>
        <description>Isla Barro Colorado, Panama (BCIP.)</description>
        <styleUrl>#waypoint</styleUrl>
        <Point>
          <coordinates>-79.837300,9.166500,61.000000</coordinates>
        </Point>
      </Placemark>
      <Placemark>
        <name>GRGR</name>
        <description>Grenville, Grenada (GRGR.)</description>
        <styleUrl>#waypoint</styleUrl>
        <Point>
          <coordinates>-61.654000,12.132400,195.000000</coordinates>
        </Point>
      </Placemark>
      <Placemark>
        <name>SDDR</name>
        <description>Presa de Sabaneta, Dominican Republic (SDDR.)</description>
        <styleUrl>#waypoint</styleUrl>
        <Point>
          <coordinates>-71.287800,18.982100,589.000000</coordinates>
        </Point>
      </Placemark>
      <Placemark>
        <name>TGUH</name>
        <description>Tegucigalpa, Honduras (TGUH.)</description>
        <styleUrl>#waypoint</styleUrl>
        <Point>
          <coordinates>-87.273000,14.057000,0.000000</coordinates>
        </Point>
      </Placemark>
    <LookAt>
      <longitude>-77.696050</longitude>
      <latitude>20.628650</latitude>
      <range>5924110.577549</range>
    </LookAt>
  </Document>
</kml>
