<?xml version="1.0" encoding="UTF-8"?>
<kml xmlns="http://www.opengis.net/kml/2.2" xmlns:gx="http://www.google.com/kml/ext/2.2">
  <Document>
    <name>GPS device</name>
    <snippet>Created Sat Jan 16 18:59:26 2021 GMT</snippet>
    <LookAt>
      <longitude>-61.415643</longitude>
      <latitude>16.164650</latitude>
      <range>132198.714347</range>
    </LookAt>
    <!-- Normal waypoint style -->
    <Style id="waypoint_n">
      <IconStyle>
        <Icon>
          <href>https://maps.google.com/mapfiles/kml/pal4/icon61.png</href>
        </Icon>
      </IconStyle>
    </Style>
    <!-- Highlighted waypoint style -->
    <Style id="waypoint_h">
      <IconStyle>
        <scale>1.2</scale>
        <Icon>
          <href>https://maps.google.com/mapfiles/kml/pal4/icon61.png</href>
        </Icon>
      </IconStyle>
    </Style>
    <StyleMap id="waypoint">
      <Pair>
        <key>normal</key>
        <styleUrl>#waypoint_n</styleUrl>
      </Pair>
      <Pair>
        <key>highlight</key>
        <styleUrl>#waypoint_h</styleUrl>
      </Pair>
    </StyleMap>
    <Folder>
      <name>Waypoints</name>
      <Placemark>
        <name>ABD</name>
        <description>La Joyeuse, Anse Bertrand, Guadeloupe (ABD.)</description>
        <styleUrl>#waypoint</styleUrl>
        <Point>
          <coordinates>-61.488100,16.474300,12.00</coordinates>
        </Point>
      </Placemark>
      <Placemark>
        <name>TDBA</name>
        <description>Terre de Bas, Les Saintes, Guadeloupe (TDBA.)</description>
        <styleUrl>#waypoint</styleUrl>
        <Point>
          <coordinates>-61.635400,15.855000,159.00</coordinates>
        </Point>
      </Placemark>
      <Placemark>
        <name>MOG</name>
        <description>Mont d'Or, Guadeloupe (MOG.)</description>
        <styleUrl>#waypoint</styleUrl>
        <Point>
          <coordinates>-61.715450,16.058040</coordinates>
        </Point>
      </Placemark>
      <Placemark>
        <name>DHS</name>
        <description>Morne Mazeau - Deshaies, Guadeloupe (DHS.)</description>
        <styleUrl>#waypoint</styleUrl>
        <Point>
          <coordinates>-61.765236,16.288680</coordinates>
        </Point>
      </Placemark>
      <Placemark>
        <name>DSD</name>
        <description>La Desirade, Guadeloupe (DSD.)</description>
        <styleUrl>#waypoint</styleUrl>
        <Point>
          <coordinates>-61.066050,16.312770</coordinates>
        </Point>
      </Placemark>
    </Folder>
  </Document>
</kml>
